,City,Lat,Lng,Max Temp,Humidity,Cloudiness,Wind Speed,Country,Date
0,Busselton,-33.65,115.3333,293.75,38,8,3.59,AU,1636774888
1,Contai,21.7786,87.7536,294.9,93,100,2.89,IN,1636774889
2,Kaitangata,-46.2817,169.8464,282.56,97,100,5.98,NZ,1636774889
3,Esperance,-33.8667,121.9,291.06,51,100,4.73,AU,1636774889
4,Fairbanks,64.8378,-147.7164,256.82,80,90,0.0,US,1636774802
5,Hermanus,-34.4187,19.2345,289.76,87,24,3.14,ZA,1636774890
6,Hofn,64.2539,-15.2082,276.67,97,100,5.98,IS,1636774890
7,Provideniya,64.3833,-173.3,264.87,94,90,1.54,RU,1636774891
8,Pevek,69.7008,170.3133,260.52,95,100,2.28,RU,1636774891
9,Port Hawkesbury,45.6169,-61.3485,279.92,80,75,3.13,CA,1636774892
10,Longyearbyen,78.2186,15.6401,257.06,78,20,5.14,SJ,1636774883
11,Lebu,-37.6167,-73.65,283.72,86,47,4.04,CL,1636774892
12,Lompoc,34.6391,-120.4579,295.32,82,1,1.54,US,1636774892
13,Saint Anthony,45.0205,-93.218,275.68,83,90,1.79,US,1636774893
14,Hilo,19.7297,-155.09,299.0,75,1,5.14,US,1636774179
15,Saskylakh,71.9167,114.0833,243.25,96,17,2.69,RU,1636774893
16,Tiksi,71.6872,128.8694,249.07,100,78,1.25,RU,1636774894
17,Korla,41.7597,86.1469,274.99,30,0,2.0,CN,1636774894
18,Jódar,37.8406,-3.3526,284.47,74,13,1.06,ES,1636774895
19,Naze,28.3667,129.4833,291.66,51,100,2.29,JP,1636774895
20,Teya,60.3778,92.6267,259.32,83,78,1.27,RU,1636774896
21,Atuona,-9.8,-139.0333,299.23,66,34,5.58,PF,1636774896
22,Kavieng,-2.5744,150.7967,302.37,71,99,1.68,PG,1636774896
23,The Valley,18.217,-63.0578,300.43,72,93,9.2,AI,1636774897
24,Bayanday,53.0661,105.5139,270.83,83,100,1.17,RU,1636774897
25,Phek,25.6667,94.5,290.95,57,84,0.16,IN,1636774897
26,Kidal,18.4411,1.4078,295.17,15,97,4.35,ML,1636774898
27,Punta Arenas,-53.15,-70.9167,280.21,76,0,2.57,CL,1636774898
28,Chokurdakh,70.6333,147.9167,252.95,92,100,3.64,RU,1636774899
29,Lüderitz,-26.6481,15.1594,290.44,68,59,8.15,NA,1636774899
30,São João da Barra,-21.6403,-41.0511,291.24,83,100,4.63,BR,1636774900
31,Port Alfred,-33.5906,26.891,290.37,84,47,2.44,ZA,1636774900
32,Susner,23.95,76.0833,295.67,35,27,3.48,IN,1636774900
33,Lavrentiya,65.5833,-171.0,264.37,96,99,1.39,RU,1636774901
34,Shimoda,34.6667,138.95,290.99,48,0,3.85,JP,1636774901
35,Bluff,-46.6,168.3333,282.5,91,100,8.96,NZ,1636774901
36,Ushuaia,-54.8,-68.3,279.96,87,20,3.6,AR,1636774644
37,Kloulklubed,7.0419,134.2556,303.43,71,99,2.13,PW,1636774902
38,Tasiilaq,65.6145,-37.6368,269.24,78,100,1.8,GL,1636774902
39,Hithadhoo,-0.6,73.0833,301.29,75,67,5.63,MV,1636774903
40,Vaini,-21.2,-175.2,301.24,78,40,3.09,TO,1636774903
41,Cape Town,-33.9258,18.4232,291.53,89,20,0.89,ZA,1636774614
42,Batagay,67.6333,134.6333,252.55,96,100,0.42,RU,1636774904
43,Prainha,-1.8,-53.48,297.45,77,11,1.25,BR,1636774904
44,Abbeyleix,52.8992,-7.3575,283.48,91,100,4.92,IE,1636774904
45,Motril,36.7507,-3.5179,288.05,55,41,2.03,ES,1636774905
46,Kaeo,-35.1,173.7833,296.11,93,100,5.73,NZ,1636774905
47,Rikitea,-23.1203,-134.9692,296.43,64,36,2.25,PF,1636774905
48,Butaritari,3.0707,172.7902,301.52,71,43,6.52,KI,1636774906
49,Wagar,16.1525,36.2032,298.28,14,27,4.18,SD,1636774906
50,Mataura,-46.1927,168.8643,281.93,99,100,3.04,NZ,1636774907
51,Saint George,37.1041,-113.5841,290.57,46,1,0.45,US,1636774699
52,Longkou,37.6508,120.3286,285.55,52,0,6.69,CN,1636774907
53,Castro,-24.7911,-50.0119,284.17,88,82,5.33,BR,1636774894
54,Nanortalik,60.1432,-45.2371,268.97,65,100,4.1,GL,1636774908
55,Guerrero Negro,27.9769,-114.0611,294.01,51,9,2.38,MX,1636774631
56,Katsuura,35.1333,140.3,289.21,51,4,2.05,JP,1636774908
57,Hobart,-42.8794,147.3294,285.5,75,75,3.6,AU,1636774742
58,New Norfolk,-42.7826,147.0587,285.31,67,85,0.89,AU,1636774909
59,Matagami,49.7502,-77.6328,274.21,93,40,2.57,CA,1636774909
60,Cherskiy,68.75,161.3,261.05,96,100,2.24,RU,1636774910
61,Great Falls,47.5002,-111.3008,286.71,55,1,4.02,US,1636774711
62,Broome,42.2506,-75.833,280.57,67,1,2.57,US,1636774910
63,Khatanga,71.9667,102.5,242.96,96,87,1.92,RU,1636774911
64,Ancud,-41.8697,-73.8203,283.89,97,100,3.3,CL,1636774911
65,Sorong,-0.8833,131.25,302.4,72,51,2.27,ID,1636774789
66,Hervey Bay,-25.2986,152.8535,302.61,42,78,7.26,AU,1636774911
67,Broken Hill,-31.95,141.4333,289.99,42,40,7.72,AU,1636774912
68,Harper,4.375,-7.7169,298.15,90,63,2.68,LR,1636774912
69,Nueva Loja,0.0847,-76.8828,295.45,85,98,1.36,EC,1636774913
70,Belmonte,-15.8631,-38.8828,295.43,94,100,7.32,BR,1636774913
71,Byron Bay,-28.65,153.6167,300.96,37,0,6.85,AU,1636774723
72,Kapaa,22.0752,-159.319,300.14,71,1,3.6,US,1636774914
73,Deputatsky,69.3,139.9,253.21,99,100,1.59,RU,1636774914
74,Portland,45.5234,-122.6762,288.76,95,90,1.79,US,1636774530
75,Tessalit,20.1986,1.0114,293.93,15,100,3.99,ML,1636774915
76,Najrān,17.4924,44.1277,283.51,27,5,0.5,SA,1636774915
77,Asău,46.4333,26.4,275.79,59,86,0.64,RO,1636774915
78,Mogocha,53.7333,119.7667,271.43,48,2,2.54,RU,1636774916
79,Oranjemund,-28.55,16.4333,288.76,89,99,6.13,NA,1636774916
80,Yanam,16.7333,82.2167,301.37,93,100,3.74,IN,1636774917
81,Albany,42.6001,-73.9662,278.6,90,4,1.31,US,1636774803
82,Bredasdorp,-34.5322,20.0403,289.42,81,52,3.08,ZA,1636774917
83,Margate,51.3813,1.3862,285.2,78,97,1.34,GB,1636774918
84,Vestmanna,62.1564,-7.1664,280.66,93,90,6.69,FO,1636774918
85,Iqaluit,63.7506,-68.5145,262.0,72,90,5.36,CA,1636774918
86,Khandyga,62.6667,135.6,262.56,92,100,1.57,RU,1636774919
87,Hasaki,35.7333,140.8333,292.2,50,43,2.85,JP,1636774919
88,Poum,-20.2333,164.0167,299.32,82,28,6.18,NC,1636774920
89,Airai,-8.9266,125.4092,295.27,77,100,0.42,TL,1636774920
90,Vicuña,-30.0319,-70.7081,282.0,59,0,0.18,CL,1636774921
91,Leningradskiy,69.3833,178.4167,259.86,91,96,0.83,RU,1636774921
92,Rudnichnyy,59.617,52.4703,271.69,96,100,1.56,RU,1636774922
93,Chui,-33.6971,-53.4616,286.88,74,5,4.03,UY,1636774922
94,Ilulissat,69.2167,-51.1,260.16,47,100,7.72,GL,1636774922
95,Ponta do Sol,32.6667,-17.1,292.99,65,5,1.96,PT,1636774923
96,Tokur,53.1333,132.9,264.82,85,100,3.1,RU,1636774923
97,Hobyo,5.3505,48.5268,300.2,67,94,6.08,SO,1636774924
98,Salalah,17.0151,54.0924,296.2,49,0,1.54,OM,1636774924
99,Jiuquan,39.7432,98.5174,276.56,20,0,1.73,CN,1636774925
100,Barrow,71.2906,-156.7887,265.16,73,90,1.54,US,1636774925
101,Alofi,-19.0595,-169.9187,301.09,69,100,1.03,NU,1636774925
102,Bilibino,68.0546,166.4372,265.57,96,100,0.54,RU,1636774926
103,Pisco,-13.7,-76.2167,290.38,88,0,5.14,PE,1636774926
104,Coahuayana Viejo,18.7333,-103.6833,297.25,91,15,1.24,MX,1636774927
105,Kondopoga,62.2057,34.2614,272.97,89,100,1.66,RU,1636774927
106,Klaksvík,62.2266,-6.589,281.66,91,100,8.74,FO,1636774927
107,Waitati,-45.75,170.5667,285.82,66,100,3.77,NZ,1636774928
108,Linguère,15.3953,-15.1193,298.27,38,0,2.06,SN,1636774928
109,Qasigiannguit,68.8193,-51.1922,260.29,93,100,2.32,GL,1636774929
110,Jamestown,42.097,-79.2353,282.92,60,90,3.58,US,1636774886
111,Rengo,-34.4167,-70.8667,287.61,76,90,0.83,CL,1636774929
112,East London,-33.0153,27.9116,290.45,87,48,1.75,ZA,1636774930
113,Nikolskoye,59.7035,30.7861,277.52,93,98,1.65,RU,1636774930
114,Ubari,26.5921,12.7805,291.24,56,100,3.37,LY,1636774931
115,Qaanaaq,77.484,-69.3632,251.46,59,0,4.04,GL,1636774931
116,Lashio,22.9333,97.75,297.72,65,43,0.56,MM,1636774932
117,Jinchang,38.4953,102.1739,278.27,17,9,0.19,CN,1636774932
118,Hong Kong,22.2855,114.1577,297.57,45,95,0.89,HK,1636774645
119,Hirara,24.8,125.2833,294.3,73,75,5.66,JP,1636774932
120,Bethel,41.3712,-73.414,284.32,91,90,0.0,US,1636774933
121,Deep River,46.1001,-77.4995,274.79,83,77,2.49,CA,1636774933
122,Laguna,38.421,-121.4238,289.94,95,90,0.45,US,1636774934
123,Sitka,57.0531,-135.33,279.09,70,90,6.69,US,1636774934
124,Dingle,10.9995,122.6711,302.25,74,88,5.91,PH,1636774934
125,Santa Rosa,14.3122,121.1114,305.14,70,90,5.35,PH,1636774935
126,Saint Paul Harbor,57.79,-152.4072,267.88,80,90,4.12,US,1636774935
127,Bad Kreuznach,49.8333,7.8667,277.38,88,39,2.45,DE,1636774936
128,Westport,41.1415,-73.3579,286.34,92,1,2.57,US,1636774936
129,Mattru,7.6244,-11.8332,295.85,97,37,0.39,SL,1636774937
130,Skibbereen,51.55,-9.2667,284.04,94,72,5.06,IE,1636774937
131,Praia da Vitória,38.7333,-27.0667,293.29,94,75,10.87,PT,1636774937
132,Clyde River,70.4692,-68.5914,252.82,94,76,3.05,CA,1636774901
133,Várzea Alegre,-5.35,-40.3833,300.01,45,8,1.17,BR,1636774666
134,Pacific Grove,36.6177,-121.9166,291.8,88,1,1.79,US,1636774938
135,Puerto Ayora,-0.7393,-90.3518,293.49,86,52,3.99,EC,1636774938
136,Port Elizabeth,-33.918,25.5701,286.31,94,0,2.06,ZA,1636774939
137,Edéa,3.8,10.1333,296.47,99,87,0.77,CM,1636774939
138,Mahibadhoo,3.7833,72.9667,301.07,80,79,8.78,MV,1636774940
139,Vostok,46.4856,135.8833,271.86,68,50,3.31,RU,1636774940
140,Ural,55.9078,94.7464,274.1,86,93,5.79,RU,1636774941
141,Palmer,42.1584,-72.3287,282.38,84,20,0.0,US,1636774941
142,Yellowknife,62.456,-114.3525,270.6,96,90,7.72,CA,1636774696
143,Bowen,-20.0167,148.2333,304.27,43,68,3.17,AU,1636774942
144,Laas,46.6166,10.7002,282.85,84,7,0.68,IT,1636774942
145,Tuktoyaktuk,69.4541,-133.0374,265.15,93,90,4.63,CA,1636774942
146,Whitianga,-36.8333,175.7,293.72,98,100,4.53,NZ,1636774943
147,Astoria,46.1879,-123.8313,286.47,97,90,0.89,US,1636774737
148,Brigantine,39.4101,-74.3646,284.27,90,1,0.0,US,1636774944
149,Coatesville,39.9832,-75.8238,284.49,80,1,0.0,US,1636774665
150,Kitzingen,49.7333,10.1667,278.26,94,100,2.3,DE,1636774944
151,Inuvik,68.3499,-133.7218,263.63,92,90,8.23,CA,1636774945
152,Fortuna,40.5982,-124.1573,287.83,73,90,0.45,US,1636774945
153,Olafsvik,64.8945,-23.7142,278.28,65,100,6.14,IS,1636774946
154,Esim,4.8699,-2.2405,298.61,88,58,2.29,GH,1636774946
155,Xiaoshi,41.2971,124.1209,279.16,69,3,3.27,CN,1636774947
156,Cidreira,-30.1811,-50.2056,291.15,68,85,7.33,BR,1636774947
157,Thompson,55.7435,-97.8558,268.24,74,90,1.54,CA,1636774947
158,Aklavik,68.2191,-135.0107,263.61,92,100,6.33,CA,1636774948
159,Lagoa,39.05,-27.9833,291.6,90,100,8.32,PT,1636774948
160,Cayenne,4.9333,-52.3333,300.42,87,20,0.45,GF,1636774949
161,Berlevåg,70.8578,29.0864,270.44,72,100,8.96,NO,1636774949
162,Kabompo,-13.5927,24.2008,289.52,91,54,1.61,ZM,1636774949
163,Alūksne,57.4167,27.05,273.21,97,40,1.63,LV,1636774950
164,Beatrice,40.2681,-96.747,272.95,74,40,4.12,US,1636774851
165,Nemuro,43.3236,145.575,284.39,62,13,3.0,JP,1636774951
166,Bengkulu,-3.8004,102.2655,301.44,68,100,1.57,ID,1636774951
167,Helong,42.5397,128.9972,282.93,25,0,3.32,CN,1636774951
168,Konyshevka,51.8418,35.2941,273.99,95,70,3.29,RU,1636774952
169,Estelle,29.8458,-90.1067,293.15,77,40,0.0,US,1636774855
170,Boa Vista,2.8197,-60.6733,301.14,69,75,4.63,BR,1636774952
171,Wakkanai,45.4094,141.6739,281.14,57,75,11.83,JP,1636774953
172,Āsosa,10.0667,34.5333,289.64,74,66,2.19,ET,1636774953
173,Cabo San Lucas,22.8909,-109.9124,298.32,78,20,0.0,MX,1636774792
174,Tougue,11.4667,-11.6,291.84,74,86,0.39,GN,1636774954
175,Havøysund,70.9963,24.6622,273.64,88,100,9.07,NO,1636774954
176,Sinnamary,5.3833,-52.95,298.34,87,11,2.48,GF,1636774955
177,Shiloh,38.5614,-89.8973,277.44,59,17,6.59,US,1636774955
178,Iquique,-20.2208,-70.1431,290.17,75,100,0.46,CL,1636774955
179,Umm Hājar,13.2954,19.6966,298.54,20,5,4.41,TD,1636774956
180,Los Llanos de Aridane,28.6585,-17.9182,289.89,80,90,4.02,ES,1636774956
181,Kurumkan,54.3,110.3,270.86,74,70,0.73,RU,1636774957
182,Chumikan,54.7183,135.315,270.1,76,100,9.19,RU,1636774957
183,Bilma,18.6853,12.9164,297.93,14,90,3.2,NE,1636774958
184,San Patricio,28.017,-97.5169,296.07,56,0,6.02,US,1636774958
185,Akşehir,38.3575,31.4164,277.21,49,98,1.72,TR,1636774958
186,Kahului,20.8947,-156.47,301.16,68,40,3.09,US,1636774959
187,Udachny,66.4167,112.4,244.83,98,15,1.06,RU,1636774959
188,Wanning,18.8003,110.3967,298.01,58,91,6.64,CN,1636774960
189,Yumen,40.2833,97.2,275.14,31,0,11.32,CN,1636774960
190,Kaniama,-7.5667,24.1833,290.63,96,84,0.88,CD,1636774960
191,Faya,18.3851,42.4509,282.44,55,0,1.72,SA,1636774961
192,Hearst,49.6835,-83.6665,273.29,93,100,2.74,CA,1636774961
193,Torbay,47.6666,-52.7314,274.41,83,40,4.12,CA,1636774961
194,Srednekolymsk,67.45,153.6833,257.82,96,100,1.08,RU,1636774962
195,Ambulu,-8.345,113.6058,302.73,65,100,2.41,ID,1636774962
196,Mandalgovi,45.7625,106.2708,275.18,29,48,6.88,MN,1636774962
197,Edd,13.9297,41.6925,302.1,41,80,7.37,ER,1636774963
198,Shelburne,44.0787,-80.2041,278.3,77,99,5.82,CA,1636774963
199,Bulawayo,-20.15,28.5833,292.61,71,28,2.27,ZW,1636774964
200,Hualmay,-11.0964,-77.6139,290.42,87,80,4.29,PE,1636774964
201,Tahoua,14.8888,5.2692,297.14,31,0,2.06,NE,1636774964
202,Abhā,18.2164,42.5053,282.29,50,0,0.0,SA,1636774965
203,Tautira,-17.7333,-149.15,300.93,65,31,4.82,PF,1636774965
204,Hyères,43.1167,6.1167,289.09,89,0,2.06,FR,1636774966
205,Santa Isabel,-23.3156,-46.2214,287.96,97,59,1.48,BR,1636774966
206,Kiunga,-6.1219,141.2906,297.63,94,100,0.19,PG,1636774967
207,Mahébourg,-20.4081,57.7,298.85,83,40,1.54,MU,1636774967
208,Yarmouth,41.7057,-70.2286,287.66,97,20,3.13,US,1636774967
209,Normandin,48.8333,-72.5321,277.32,93,96,2.57,CA,1636774968
210,Amos,48.5669,-78.1162,274.36,87,36,2.93,CA,1636774968
211,Elko,41.0002,-115.5012,282.39,57,8,1.34,US,1636774969
212,Lorengau,-2.0226,147.2712,303.14,68,71,1.91,PG,1636774969
213,Ribeira Grande,38.5167,-28.7,292.37,88,100,5.69,PT,1636774970
214,Tygda,53.1167,126.3333,271.87,34,2,4.66,RU,1636774970
215,Biak,-0.9131,122.8766,302.33,68,74,1.13,ID,1636774970
216,Krasnosel'kup,65.7,82.4667,258.46,94,100,6.57,RU,1636774971
217,Kargasok,59.0556,80.8572,266.55,90,86,5.53,RU,1636774971
218,Husavik,66.0449,-17.3389,263.1,83,100,5.44,IS,1636774971
219,Letlhakeng,-24.0944,25.0298,295.67,38,27,3.08,BW,1636774972
220,Belomorsk,64.5232,34.7668,270.83,89,100,2.84,RU,1636774972
221,Ahipara,-35.1667,173.1667,292.55,98,100,6.37,NZ,1636774973
222,Geraldton,-28.7667,114.6,302.38,24,0,4.63,AU,1636774973
223,Florián,5.8049,-73.9703,288.56,97,47,1.57,CO,1636774973
224,Emporia,38.4039,-96.1817,275.26,55,1,6.17,US,1636774974
225,Lagan,45.3929,47.3707,278.08,85,81,6.47,RU,1636774974
226,Avarua,-21.2078,-159.775,299.18,83,90,4.63,CK,1636774975
227,Kununurra,-15.7667,128.7333,308.14,18,48,5.14,AU,1636774975
228,Urengoy,65.9667,78.3667,260.47,95,100,5.07,RU,1636774975
229,Tuatapere,-46.1333,167.6833,282.51,96,100,3.14,NZ,1636774976
230,Shingū,33.7333,135.9833,289.7,45,8,2.52,JP,1636774976
231,Te Anau,-45.4167,167.7167,282.5,96,100,2.42,NZ,1636774976
232,Upernavik,72.7868,-56.1549,257.66,79,73,3.61,GL,1636774977
233,George Town,5.4112,100.3354,302.11,87,40,0.89,MY,1636774689
234,Teknāf,20.8624,92.3058,302.39,59,60,1.5,BD,1636774977
235,Alvarães,-3.2208,-64.8042,296.18,99,100,1.08,BR,1636774978
236,Emilio Carranza,19.9711,-96.6114,296.02,75,12,1.11,MX,1636774978
237,Buraidah,26.326,43.975,287.4,38,98,4.0,SA,1636774979
238,Kavaratti,10.5669,72.642,300.65,73,70,1.07,IN,1636774979
239,St. Pete Beach,27.7253,-82.7412,294.27,86,100,1.84,US,1636774979
240,Aksu,41.1231,80.2644,276.6,33,12,0.76,CN,1636774980
241,Graneros,-34.0667,-70.7333,282.97,73,40,0.64,CL,1636774980
242,Port Lincoln,-34.7333,135.8667,286.17,72,97,6.81,AU,1636774981
243,Kirkkonummi,60.1238,24.4385,275.26,95,28,1.88,FI,1636774981
244,Lerwick,60.1545,-1.1494,282.15,95,100,2.75,GB,1636774982
245,Grand Baie,-20.0182,57.5802,298.96,74,66,2.24,MU,1636774982
246,Vila,42.0304,-8.1588,280.33,80,22,1.79,PT,1636774983
247,Faanui,-16.4833,-151.75,299.41,65,51,4.34,PF,1636774983
248,São Filipe,14.8961,-24.4956,297.45,74,33,3.5,CV,1636774983
249,Sai Buri,6.7013,101.6168,300.35,78,92,1.62,TH,1636774984
250,Ruidoso,33.3317,-105.673,282.0,48,1,4.63,US,1636774984
251,Bambous Virieux,-20.3428,57.7575,298.83,83,40,1.54,MU,1636774985
252,Melita,49.2681,-100.9967,268.12,93,99,2.09,CA,1636774985
253,Chadiza,-14.0678,32.4392,294.33,66,93,1.46,ZM,1636774985
254,Marsh Harbour,26.5412,-77.0636,298.48,77,100,2.41,BS,1636774986
255,Saint-Philippe,-21.3585,55.7679,301.75,73,56,4.6,RE,1636774986
256,Arua,3.0201,30.9111,291.55,86,100,0.8,UG,1636774987
257,Luanda,-8.8368,13.2343,298.55,85,100,4.3,AO,1636774770
258,Mwinilunga,-11.7358,24.4293,289.02,93,59,1.01,ZM,1636774987
259,Témiscaming,46.7212,-79.0971,279.64,93,55,1.54,CA,1636774988
260,Pinerovka,51.562,43.0689,275.78,80,93,6.98,RU,1636774988
261,Ürümqi,43.801,87.6005,270.68,59,0,1.0,CN,1636774923
262,Arraial do Cabo,-22.9661,-42.0278,292.98,65,92,4.54,BR,1636774989
263,Wenatchee,47.4235,-120.3103,286.7,78,1,0.45,US,1636774838
264,Inhambane,-23.865,35.3833,297.02,79,74,2.3,MZ,1636774989
265,Marrakesh,31.6315,-8.0083,285.19,82,6,2.06,MA,1636774990
266,Talnakh,69.4865,88.3972,260.3,90,100,6.64,RU,1636774990
267,Hwange,-18.3693,26.5019,295.5,78,9,1.09,ZW,1636774990
268,Bereket,39.2446,55.5154,281.28,58,99,0.82,TM,1636774991
269,Sangar,63.9242,127.4739,251.57,97,100,1.05,RU,1636774991
270,Ituporanga,-27.4144,-49.6025,289.27,98,89,0.76,BR,1636774992
271,Dikson,73.5069,80.5464,261.58,95,100,4.13,RU,1636774992
272,Impfondo,1.6381,18.0667,293.98,98,60,0.83,CG,1636774993
273,Coquimbo,-29.9533,-71.3436,286.0,87,0,1.03,CL,1636774993
274,East Stroudsburg,40.9995,-75.1813,283.04,62,1,0.9,US,1636774994
275,Sobolevo,54.4299,31.8996,276.08,78,82,4.81,RU,1636774994
276,Morondava,-20.2833,44.2833,300.15,77,88,2.79,MG,1636774994
277,Nhulunbuy,-12.2333,136.7667,300.49,89,75,6.69,AU,1636774995
278,Mount Gambier,-37.8333,140.7667,287.1,51,40,8.75,AU,1636774995
279,Orocué,4.7912,-71.3354,298.26,65,37,1.77,CO,1636774996
280,Rakitovo,41.9833,24.0833,268.83,62,91,0.99,BG,1636774996
281,Gorontalo,0.5412,123.0595,304.06,68,90,1.18,ID,1636774996
282,Jalu,29.0331,21.5482,289.19,59,0,3.08,LY,1636774997
283,The Pas,53.8251,-101.2541,269.16,93,90,2.57,CA,1636774997
284,Arrondissement d'Ajaccio,42.0,8.9167,285.24,82,0,2.57,FR,1636774998
285,Nhamundá,-2.1861,-56.7131,298.8,75,83,0.91,BR,1636774998
286,Amahai,-3.3333,128.9167,302.47,74,97,1.6,ID,1636774998
287,Oranjestad,12.524,-70.027,300.12,83,20,6.69,AW,1636774999
288,Río Gallegos,-51.6226,-69.2181,282.18,61,0,1.54,AR,1636774999
289,Roebourne,-20.7833,117.1333,304.04,19,53,6.18,AU,1636774999
290,Santa Cruz de Tenerife,28.4682,-16.2546,294.06,77,75,1.34,ES,1636775000
291,Goulburn,-34.75,149.7167,282.32,93,100,6.86,AU,1636775000
292,Taltal,-25.4,-70.4833,289.44,79,1,0.49,CL,1636775001
293,Samarai,-10.6167,150.6667,302.61,72,93,4.59,PG,1636775001
294,Port Moresby,-9.4431,147.1797,305.83,62,40,7.72,PG,1636775002
295,North Bend,43.4065,-124.2243,289.79,97,90,2.57,US,1636775002
296,Pilar,-9.5972,-35.9567,298.11,91,64,2.21,BR,1636775002
297,Amnat Charoen,15.9167,104.75,301.7,64,100,9.0,TH,1636775003
298,Gizo Government Station,-8.103,156.8419,302.35,70,38,1.57,SB,1636775003
299,Malinyi,-8.9333,36.1333,297.06,78,71,1.46,TZ,1636775004
300,Touros,-5.1989,-35.4608,299.65,82,72,5.11,BR,1636775004
301,Awjilah,29.1081,21.2869,289.38,58,0,2.85,LY,1636775004
302,Angol,-37.8,-72.7167,283.24,87,52,0.8,CL,1636775005
303,Dunedin,-45.8742,170.5036,285.82,66,100,1.34,NZ,1636774749
304,Kysyl-Syr,63.8986,122.7617,254.78,86,100,2.45,RU,1636775005
305,Porbandar,21.6422,69.6093,295.14,53,9,2.06,IN,1636775006
306,Chapais,49.7834,-74.8492,274.03,97,56,1.93,CA,1636775006
307,Huejuquilla el Alto,22.6,-103.8667,287.8,54,80,1.55,MX,1636775007
308,Jeremoabo,-10.075,-38.4808,294.51,96,39,2.61,BR,1636775007
309,Carnarvon,-24.8667,113.6333,298.19,53,6,8.23,AU,1636775007
310,Ixtapa,20.7,-105.2,298.72,83,1,0.0,MX,1636775008
311,Lisala,2.15,21.5167,293.25,98,100,0.39,CD,1636775008
312,Samoylovka,51.184,43.7081,275.7,79,77,7.16,RU,1636775009
313,Ōdachō-ōda,35.1833,132.5,283.58,55,78,7.07,JP,1636775009
314,Marang,5.2056,103.2059,302.1,74,91,2.13,MY,1636775010
315,Codrington,-38.2667,141.9667,286.62,52,100,6.86,AU,1636775010
316,Abu Samrah,35.3029,37.1841,285.64,38,38,3.31,SY,1636775010
317,Kamsack,51.5667,-101.9009,265.4,97,92,3.05,CA,1636775011
318,Tukan,53.8409,57.4552,267.6,93,100,3.23,RU,1636775011
319,San Miguel de Cozumel,20.5083,-86.9458,297.14,95,90,2.06,MX,1636774759
320,Wodonga,-36.1167,146.8833,289.29,84,40,3.58,AU,1636775012
321,Kenai,60.5544,-151.2583,267.09,92,90,1.54,US,1636775012
322,Badulla,6.9895,81.0557,300.05,56,21,1.06,LK,1636775013
323,Rivera,-30.9053,-55.5508,286.08,85,0,4.35,UY,1636775013
324,Necochea,-38.5473,-58.7368,287.51,80,18,7.2,AR,1636775014
325,Caravelas,-17.7125,-39.2481,293.98,91,100,7.37,BR,1636775014
326,Palana,59.1167,159.9667,271.97,83,87,3.07,RU,1636775014
327,Maniitsoq,65.4167,-52.9,264.63,57,0,4.69,GL,1636775015
328,Rio de Janeiro,-22.9028,-43.2075,293.1,88,40,2.06,BR,1636775015
329,Nome,64.5011,-165.4064,259.19,78,1,0.0,US,1636775016
330,Nouadhibou,20.931,-17.0347,293.14,73,0,2.06,MR,1636775016
331,Praia,14.9215,-23.5087,296.45,78,20,4.63,CV,1636775017
332,Rawson,-43.3002,-65.1023,287.24,91,100,3.07,AR,1636774858
333,Coyhaique,-45.5752,-72.0662,284.12,93,75,2.06,CL,1636774790
334,Mīzan Teferī,6.9833,35.5833,290.01,78,82,1.4,ET,1636775017
335,Tepetzintla,21.1667,-97.8333,292.24,86,15,0.86,MX,1636775018
336,Mar del Plata,-38.0023,-57.5575,289.75,87,4,14.31,AR,1636774944
337,Yulara,-25.2406,130.9889,295.06,24,0,3.09,AU,1636775018
338,Umluj,25.0213,37.2685,295.99,87,100,6.04,SA,1636775019
339,Bahār,34.9072,48.4414,275.24,100,90,1.03,IR,1636775019
340,Vila Velha,-20.3297,-40.2925,292.12,88,75,2.24,BR,1636775019
341,Mudanjiang,44.5833,129.6,276.57,59,7,3.74,CN,1636775020
342,Opuwo,-18.0607,13.84,294.51,57,49,1.29,NA,1636775020
343,Buala,-8.145,159.5921,302.74,70,79,1.77,SB,1636775021
344,Corinth,37.9407,22.9573,285.2,82,92,0.11,GR,1636775021
345,Ocós,14.5094,-92.1933,300.55,73,0,1.16,GT,1636775021
346,Balsas,-7.5325,-46.0356,297.61,76,82,0.23,BR,1636775022
347,Isangel,-19.55,169.2667,303.21,70,75,0.0,VU,1636775022
348,Egvekinot,66.3167,-179.1667,255.72,95,58,1.84,RU,1636775022
349,San Policarpo,12.1791,125.5072,301.4,84,79,4.6,PH,1636775023
350,Bathsheba,13.2167,-59.5167,299.49,78,75,8.23,BB,1636775023
351,Clearwater,27.9659,-82.8001,294.21,92,1,1.34,US,1636774774
352,Tigil',57.8,158.6667,273.69,87,86,3.23,RU,1636775024
353,Camabatela,-8.1881,15.375,289.2,99,100,0.75,AO,1636775024
354,Tiarei,-17.5333,-149.3333,300.93,65,13,4.96,PF,1636775024
355,Menongue,-14.6585,17.691,290.24,88,100,0.33,AO,1636775025
356,Rørvik,64.8621,11.2373,277.84,73,100,5.75,NO,1636775025
357,Nelson Bay,-32.7167,152.15,294.68,43,27,2.24,AU,1636775026
358,Moose Factory,51.2585,-80.6094,273.15,100,90,4.63,CA,1636775026
359,Mossendjo,-2.9506,12.7261,293.52,99,100,0.66,CG,1636775026
360,Bouar,5.934,15.596,291.31,91,99,0.64,CF,1636775027
361,Mormugao,15.4,73.8,299.74,74,40,2.57,IN,1636775027
362,Torbat-e Jām,35.244,60.6225,279.57,56,55,0.49,IR,1636775028
363,Saurimo,-9.6608,20.3916,291.25,89,99,0.58,AO,1636775028
364,Bukachacha,52.9833,116.9167,271.16,60,22,1.12,RU,1636775028
365,Oistins,13.0667,-59.5333,299.2,78,75,8.23,BB,1636775029
366,Sulangan,11.1373,123.7228,301.88,76,100,3.94,PH,1636775029
367,Mitú,1.1983,-70.1733,296.67,88,100,0.32,CO,1636775029
368,Ribnitz-Damgarten,54.25,12.4667,280.43,73,100,4.72,DE,1636774942
369,Camopi,3.1655,-52.3158,294.11,98,5,0.75,GF,1636775030
370,Concepción del Oro,24.6333,-101.4167,287.71,54,58,2.08,MX,1636775031
371,Lata,40.1629,-8.3327,278.38,76,18,1.67,PT,1636775031
372,Coração de Jesus,-16.6853,-44.365,292.55,95,100,2.0,BR,1636775031
373,Adrar,20.5022,-10.0711,295.34,48,80,2.58,MR,1636775032
374,Port Macquarie,-31.4333,152.9167,297.53,31,5,9.77,AU,1636775032
375,Komatipoort,-25.4332,31.9548,297.07,73,83,3.51,ZA,1636775033
376,Beira,-19.8436,34.8389,297.44,84,75,3.64,MZ,1636775033
377,Prince Rupert,54.3161,-130.3201,280.98,89,90,4.63,CA,1636774867
378,Saint-François,46.4154,3.9054,275.84,100,90,1.54,FR,1636775034
379,Fukuechō,32.6881,128.8419,288.35,63,75,2.57,JP,1636775034
380,Kampene,-3.6,26.6667,292.5,99,100,0.7,CD,1636775034
381,Forbes,-33.3833,148.0167,285.33,91,100,9.28,AU,1636775035
382,Saldanha,-33.0117,17.9442,290.3,86,12,6.1,ZA,1636775035
383,Norman Wells,65.282,-126.8329,259.17,78,90,7.72,CA,1636775036
384,Yangi Marg`ilon,40.4272,71.7189,276.83,70,66,0.0,UZ,1636775036
385,La Dorada,5.4478,-74.6631,295.63,96,67,0.52,CO,1636775036
386,Collie,-33.3667,116.15,292.58,29,40,3.99,AU,1636775037
387,Solnechnyy,50.7214,136.6319,272.13,66,25,1.47,RU,1636775037
388,Venice,27.0998,-82.4543,295.45,97,1,0.0,US,1636775038
389,Quatre Cocos,-20.2078,57.7625,298.76,70,68,3.74,MU,1636775038
390,San Quintín,30.4833,-115.95,294.32,40,59,1.89,MX,1636775038
391,Bosaso,11.2842,49.1816,298.67,67,62,2.2,SO,1636775039
392,Teruel,40.6667,-0.6667,280.13,93,29,2.05,ES,1636775039
393,Mairana,-18.1167,-63.9333,289.14,85,99,0.36,BO,1636775040
394,Kumul,42.8,93.45,274.51,40,0,2.22,CN,1636775040
395,Kajansi,0.2081,32.5222,293.53,85,81,0.93,UG,1636775040
396,Bayevo,53.2833,80.7667,273.43,70,100,5.59,RU,1636775041
397,Ambanja,-13.6833,48.45,298.11,81,31,0.92,MG,1636775041
398,Nālūt,30.3333,10.85,287.85,56,87,5.53,LY,1636775042
399,Gamboula,4.1178,15.1393,292.42,97,26,0.67,CF,1636775042
400,Mossamedes,-15.1961,12.1522,293.19,87,5,1.53,AO,1636775043
401,Watrous,51.6668,-105.4679,265.03,86,98,9.26,CA,1636775043
402,Cockburn Town,21.4612,-71.1419,300.7,79,10,6.61,TC,1636775044
403,Shahr-e Kord,32.3256,50.8644,274.02,75,0,2.06,IR,1636775044
404,Neiafu,-18.65,-173.9833,300.53,83,75,2.57,TO,1636775044
405,Tanete,-3.9443,119.7848,301.17,79,100,3.69,ID,1636775045
406,Mariinsk,56.2139,87.7472,273.93,97,100,6.59,RU,1636775045
407,Tarko-Sale,64.9225,77.785,260.88,95,99,5.75,RU,1636775045
408,São João da Ponte,-15.9292,-44.0078,292.81,95,100,0.81,BR,1636775046
409,Narsaq,60.9167,-46.05,267.27,67,100,2.96,GL,1636775046
410,Tura,25.5198,90.2201,297.06,53,30,0.24,IN,1636775047
411,Nelspruit,-25.4745,30.9703,294.31,68,27,2.06,ZA,1636775047
412,Platteville,42.7342,-90.4785,276.62,100,90,3.6,US,1636775048
413,Mayo,38.8876,-76.5119,285.34,91,1,0.0,US,1636775048
414,Jaciara,-15.9653,-54.9683,295.65,94,100,1.09,BR,1636775048
415,Orangeburg,33.4918,-80.8557,282.31,93,1,0.0,US,1636775049
416,Jefferson City,38.5767,-92.1735,277.24,52,90,5.36,US,1636775049
417,Cururupu,-1.8283,-44.8683,297.23,93,14,1.21,BR,1636775050
418,Severo-Kuril'sk,50.6789,156.125,279.02,94,100,3.7,RU,1636775050
419,Staryy Nadym,65.6118,72.6842,264.84,96,100,2.06,RU,1636775050
420,Port Augusta,-32.5,137.7667,291.32,40,95,4.14,AU,1636775051
421,Varna,43.2167,27.9167,283.39,93,90,1.03,BG,1636774866
422,Pangnirtung,66.1451,-65.7125,255.31,89,45,2.75,CA,1636775052
423,Zhigansk,66.7697,123.3711,249.16,95,100,2.58,RU,1636775052
424,Trenggalek,-8.05,111.7167,301.86,77,99,2.42,ID,1636775053
425,Bonavista,48.6499,-53.1147,274.88,68,71,6.9,CA,1636775053
426,Auki,-8.7676,160.7034,302.97,68,57,0.79,SB,1636775053
427,Anking,30.5092,117.0506,291.43,30,0,3.81,CN,1636775054
428,Correia Pinto,-27.5847,-50.3611,284.64,88,97,2.94,BR,1636775054
429,Brae,60.3964,-1.353,282.1,96,100,4.04,GB,1636775055
430,Hanna,51.6334,-111.9018,276.16,75,100,3.13,CA,1636775055
431,Puri,19.8,85.85,300.03,92,100,5.71,IN,1636774792
432,Coxim,-18.5067,-54.76,296.7,89,94,3.62,BR,1636775056
433,Marawi,7.9986,124.2928,297.95,79,84,1.81,PH,1636775056
434,Seoul,37.5683,126.9778,285.38,47,40,3.09,KR,1636775057
435,Santander,43.4647,-3.8044,286.18,92,90,0.89,ES,1636775057
436,Amasya,40.6533,35.8331,272.0,57,0,0.89,TR,1636775058
437,Bubaque,11.2833,-15.8333,301.32,68,100,4.29,GW,1636775058
438,Trivandrum,8.4833,76.9167,299.14,94,90,3.09,IN,1636774772
439,Tashtyp,52.7939,89.8983,275.53,74,98,4.59,RU,1636775058
440,Atambua,-9.1061,124.8925,301.06,75,100,1.35,ID,1636775059
441,Constitución,-35.3333,-72.4167,283.48,93,36,3.64,CL,1636775059
442,Goundam,16.4145,-3.6708,296.83,11,94,3.64,ML,1636775060
443,San Rafael del Sur,11.8485,-86.4384,297.69,74,3,5.19,NI,1636775060
444,Ghanzi,-21.5667,21.7833,296.29,36,86,3.18,BW,1636775060
445,Andapa,-14.65,49.65,294.58,85,32,0.13,MG,1636775061
446,Tvøroyri,61.5556,-6.8111,281.81,93,100,7.25,FO,1636775061
447,Visnes,59.3556,5.2242,283.83,71,75,4.12,NO,1636775062
448,Kachīry,53.0675,76.1036,271.99,72,100,5.5,KZ,1636775062
449,Walvis Bay,-22.9575,14.5053,288.2,94,18,2.57,NA,1636775062
450,Saint-Leu,-21.15,55.2833,301.46,74,14,1.54,RE,1636775063
451,Mathbaria,22.2876,89.9593,295.43,78,98,3.24,BD,1636775063
452,Raudeberg,61.9875,5.1352,281.52,76,99,1.64,NO,1636775064
453,Ashington,50.9331,-0.3909,284.92,74,37,1.34,GB,1636775064
454,Kruisfontein,-34.0033,24.7314,287.37,87,29,2.95,ZA,1636775064
455,Kattivākkam,13.2167,80.3167,302.2,93,100,0.83,IN,1636775065
456,Killybegs,54.6333,-8.45,282.84,87,99,4.53,IE,1636775065
457,Oktyabr'skiy,54.4815,53.471,270.84,96,100,2.9,RU,1636775065
458,Sungai Penuh,-2.0833,101.3833,297.91,59,100,1.55,ID,1636775066
459,Ginda,30.6945,78.4932,289.09,20,0,1.44,IN,1636775066
460,Alausí,-2.2,-78.8333,283.84,89,96,0.53,EC,1636775067
461,Le Port,-20.9373,55.2919,301.98,74,15,2.89,RE,1636775067
462,Padang,-0.9492,100.3543,303.18,63,68,2.21,ID,1636775067
463,Abū Zabad,12.35,29.25,296.09,22,4,3.55,SD,1636775068
464,Cocobeach,1.0002,9.5823,299.11,86,95,2.16,GA,1636775068
465,Anadyr,64.75,177.4833,266.43,92,90,1.79,RU,1636775069
466,Rūdbār,30.15,62.6,288.28,28,0,0.76,AF,1636775069
467,Acaraú,-2.8856,-40.12,299.23,80,6,4.39,BR,1636775069
468,Mehamn,71.0357,27.8492,269.61,91,100,8.07,NO,1636775070
469,Jiazi,22.8779,116.067,294.86,56,88,5.18,CN,1636775070
470,Katherine,-14.4667,132.2667,308.33,36,38,5.14,AU,1636775070
471,Damaturu,11.747,11.9608,295.99,16,0,1.49,NG,1636775071
472,Sirūr,18.8333,74.3833,298.61,54,67,4.06,IN,1636775071
473,Dogondoutchi,13.6393,4.0287,300.41,19,100,1.37,NE,1636775072
474,San Juan,-31.5375,-68.5364,298.43,49,6,9.65,AR,1636774922
475,Grand-Santi,4.25,-54.3833,295.28,99,14,0.92,GF,1636775072
476,Khani,41.9563,42.9566,270.91,57,21,2.08,GE,1636775073
477,Murdochville,48.9583,-65.5006,271.64,94,100,6.94,CA,1636775073
478,Calvinia,-31.4707,19.776,288.54,61,49,1.9,ZA,1636775074
479,Damietta,31.4165,31.8133,295.09,65,84,4.9,EG,1636775074
480,Campos Novos,-27.4017,-51.225,284.05,86,21,3.81,BR,1636775075
481,Vasai,19.47,72.8,302.2,36,75,2.08,IN,1636775075
482,Antsohihy,-14.8796,47.9875,299.31,75,8,1.57,MG,1636775075
483,Kirakira,-10.4544,161.9205,303.0,71,37,3.11,SB,1636775076
484,Smoky Lake,54.1169,-112.4686,269.57,86,97,2.57,CA,1636775076
485,Mount Isa,-20.7333,139.5,297.02,23,23,5.66,AU,1636775077
486,Fare,-16.7,-151.0167,298.98,66,30,4.84,PF,1636775077
487,Roquetas de Mar,36.7642,-2.6148,288.15,64,67,0.46,ES,1636775077
488,Mountain Home,43.133,-115.6912,284.14,100,40,1.54,US,1636775078
489,Ibanda,-2.7974,32.4746,292.84,84,33,0.55,TZ,1636775078
490,Tasco,5.9104,-72.78,284.65,96,100,1.16,CO,1636775079
491,Avera,33.194,-82.5271,285.11,44,0,2.74,US,1636775079
492,Vrangel',42.7297,133.0839,280.91,52,3,4.71,RU,1636775079
493,Port Blair,11.6667,92.75,300.17,89,75,3.09,IN,1636775080
494,Micheweni,-4.9667,39.8333,299.81,77,98,2.35,TZ,1636775080
495,Murwillumbah,-28.3167,153.4,301.0,25,0,8.23,AU,1636775081
496,Lepaterique,14.0667,-87.4667,289.93,95,20,2.85,HN,1636775081
497,Mana,5.6592,-53.7767,298.05,90,51,3.11,GF,1636775081
498,Kalmunai,7.4167,81.8167,301.84,72,47,1.28,LK,1636775082
499,Lesnoy,57.6198,63.0784,268.73,94,52,3.15,RU,1636775082
500,Northam,51.0333,-4.2167,285.71,87,100,7.38,GB,1636775083
501,Aswān,24.0934,32.907,293.76,83,40,2.57,EG,1636775083
502,Marabu,4.4148,114.0089,303.23,70,40,1.54,MY,1636775083
503,Turaif,31.6725,38.6637,281.29,46,0,4.12,SA,1636775084
504,Kerrville,30.0474,-99.1403,288.5,64,1,0.45,US,1636774793
505,Haines Junction,60.7522,-137.5108,266.12,68,100,2.06,CA,1636775084
506,Klyuchi,52.2667,79.1667,273.32,61,87,5.8,RU,1636775085
507,Whyalla,-33.0333,137.5833,288.09,77,75,2.06,AU,1636775085
508,Honningsvåg,70.9821,25.9704,273.71,77,100,11.87,NO,1636775086
509,Cabedelo,-6.9811,-34.8339,297.52,81,96,5.01,BR,1636775086
510,Amlapura,-8.45,115.6167,301.64,68,100,3.88,ID,1636775086
511,Belyy Yar,53.6039,91.3903,277.09,62,0,6.0,RU,1636775087
512,Kimberley,-28.7323,24.7623,285.98,54,0,1.54,ZA,1636775087
513,Honāvar,14.2833,74.45,299.74,80,99,2.24,IN,1636775087
514,Port Hardy,50.6996,-127.4199,282.15,93,75,2.06,CA,1636775088
515,Nagato,34.3833,131.2,288.12,52,6,5.3,JP,1636775088
516,Okhotsk,59.3833,143.3,273.91,100,100,3.38,RU,1636775089
517,Prado,-17.3411,-39.2208,294.42,94,100,7.5,BR,1636775089
518,Sisimiut,66.9395,-53.6735,262.77,86,98,3.79,GL,1636775089
519,Tymovskoye,50.8456,142.655,273.28,86,100,2.24,RU,1636775090
520,Road Town,18.4167,-64.6167,300.37,76,99,9.42,VG,1636775090
521,Ankazobe,-18.3167,47.1167,292.38,65,84,1.43,MG,1636775091
522,Anshun,26.25,105.9333,279.73,71,100,1.33,CN,1636775091
523,Zhezkazgan,47.8043,67.7144,269.61,46,63,3.65,KZ,1636775091
524,Tema,5.667,-0.0166,299.38,94,0,2.06,GH,1636775092
525,Charlottesville,38.0293,-78.4767,284.05,74,1,0.0,US,1636774444
526,Ginir,7.1333,40.7,289.11,74,79,0.62,ET,1636775092
527,Karpathos,35.507,27.2132,291.13,72,9,1.03,GR,1636775093
528,Teahupoo,-17.8333,-149.2667,297.89,66,35,4.95,PF,1636775093
529,Tombouctou,20.0,-3.0,295.39,12,100,3.26,ML,1636775093
530,Oxílithos,38.5833,24.1167,284.11,76,29,2.77,GR,1636775094
531,Yeysk,46.6989,38.2792,279.79,78,0,3.72,RU,1636775094
532,Novikovo,51.1537,37.8879,274.54,92,59,4.53,RU,1636775095
533,Khovd,48.0056,91.6419,275.38,18,65,2.25,MN,1636775095
534,Havre-St-Pierre,50.2334,-63.5986,275.15,80,90,5.14,CA,1636775096
535,Leh,34.1667,77.5833,267.99,45,1,0.56,IN,1636775096
536,Acarí,-15.4311,-74.6158,292.87,73,100,1.48,PE,1636775096
537,Ligayan,4.6533,119.4706,300.96,78,100,4.15,PH,1636775097
538,Angoche,-16.2325,39.9086,299.35,83,49,1.94,MZ,1636775097
539,Kangaatsiaq,68.3065,-53.4641,263.08,90,100,3.77,GL,1636775097
540,Peleduy,59.6289,112.7406,261.88,86,58,0.78,RU,1636775098
541,Marystown,47.1666,-55.1483,274.74,100,44,0.84,CA,1636775099
542,Ciudad General Terán,25.2667,-99.6833,296.26,67,100,1.11,MX,1636775099
543,Magadan,59.5667,150.8,275.67,97,100,9.15,RU,1636775100
544,Dārāb,28.7519,54.5444,289.83,46,2,1.65,IR,1636775100
545,Imbituba,-28.24,-48.6703,291.38,84,100,2.89,BR,1636775101
546,Coruripe,-10.1256,-36.1756,297.79,87,47,4.06,BR,1636775101
547,Debre Tabor,11.85,38.0167,282.85,82,20,1.82,ET,1636775101
548,Arrifes,37.7667,-25.7,293.29,68,40,7.2,PT,1636775102
549,Bajil,15.0584,43.2851,299.73,58,24,0.93,YE,1636775102
550,Bulgan,48.8125,103.5347,274.53,27,78,1.1,MN,1636775103
551,Paamiut,61.994,-49.6678,262.34,68,0,3.92,GL,1636775103
552,Sainte-Suzanne,-20.9061,55.6089,302.1,69,0,5.66,RE,1636775104
553,Areia Branca,-4.9561,-37.1369,298.69,83,24,6.11,BR,1636775104
554,Praia,14.9215,-23.5087,296.45,78,20,4.63,CV,1636775105
555,Tarakan,3.3,117.6333,298.87,89,75,2.06,ID,1636775105
556,Sabang,5.8933,95.3214,301.01,75,99,7.81,ID,1636775106
557,Blackwater,-23.5833,148.8833,300.71,22,0,7.46,AU,1636775106
558,Sumoto,34.35,134.9,289.18,10,53,25.93,JP,1636775107
559,Āsbe Teferī,9.0833,40.8667,290.62,59,100,0.92,ET,1636775107
